{
  "Anaa": [
    {
      "city": "Anaa",
      "city_code": "AAA",
      "country": "French Polynesia",
      "latitude": "-17.05",
      "longitude": "-145.41667",
      "airports": [
        {
          "iata": "AAA",
          "airport_name": "Anaa",
          "latitude": -17.05,
          "longitude": -145.41667,
          "timezone": "Pacific/Tahiti"
        }
      ]
    }
  ],
  "Arrabury": [
    {
      "city": "Arrabury",
      "city_code": "AAB",
      "country": "Australia",
      "latitude": "-26.7",
      "longitude": "141.04167",
      "airports": [
        {
          "iata": "AAB",
          "airport_name": "Arrabury",
          "latitude": -26.7,
          "longitude": 141.04167,
          "timezone": "Australia/Brisbane"
        }
      ]
    }
  ],
  "El Arish": [
    {
      "city": "El Arish",
      "city_code": "AAC",
      "country": "Egypt",
      "latitude": "31.133333",
      "longitude": "33.75",
      "airports": [
        {
          "iata": "AAC",
          "airport_name": "El Arish International Airport",
          "latitude": 31.133333,
          "longitude": 33.75,
          "timezone": "Africa/Cairo"
        }
      ]
    }
  ],
  "Annaba": [
    {
      "city": "Annaba",
      "city_code": "AAE",
      "country": "",
      "latitude": "36.821392",
      "longitude": "7.811857",
      "airports": [
        {
          "iata": "AAE",
          "airport_name": "Les Salines",
          "latitude": 36.821392,
          "longitude": 7.811857,
          "timezone": "Africa/Algiers"
        }
      ]
    }
  ],
  "Apalachicola": [
    {
      "city": "Apalachicola",
      "city_code": "AAF",
      "country": "United States",
      "latitude": "29.733334",
      "longitude": "-84.98333",
      "airports": [
        {
          "iata": "AAF",
          "airport_name": "Apalachicola Regional",
          "latitude": 29.733334,
          "longitude": -84.98333,
          "timezone": "America/New_York"
        }
      ]
    }
  ],
  "Arapoti": [
    {
      "city": "Arapoti",
      "city_code": "AAG",
      "country": "Brazil",
      "latitude": "-24.103611",
      "longitude": "-49.79",
      "airports": [
        {
          "iata": "AAG",
          "airport_name": "Arapoti",
          "latitude": -24.103611,
          "longitude": -49.79,
          "timezone": "America/Sao_Paulo"
        }
      ]
    }
  ],
  "Aachen": [
    {
      "city": "Aachen",
      "city_code": "AAH",
      "country": "Berlin",
      "latitude": "50.775438",
      "longitude": "6.08151",
      "airports": [
        {
          "iata": "AAH",
          "airport_name": "Aachen/Merzbruck",
          "latitude": 50.75,
          "longitude": 6.133333,
          "timezone": "Europe/Berlin"
        }
      ]
    }
  ],
  "Arraias": [
    {
      "city": "Arraias",
      "city_code": "AAI",
      "country": "Brazil",
      "latitude": "-12.916667",
      "longitude": "-46.933334",
      "airports": [
        {
          "iata": "AAI",
          "airport_name": "Arraias",
          "latitude": -12.916667,
          "longitude": -46.933334,
          "timezone": "America/Araguaina"
        }
      ]
    }
  ],
  "Awaradam": [
    {
      "city": "Awaradam",
      "city_code": "AAJ",
      "country": "Suriname",
      "latitude": "3.9",
      "longitude": "-55.36667",
      "airports": []
    }
  ],
  "Aranuka": [
    {
      "city": "Aranuka",
      "city_code": "AAK",
      "country": "Kiribati",
      "latitude": "0.166667",
      "longitude": "173.58333",
      "airports": [
        {
          "iata": "AAK",
          "airport_name": "Aranuka",
          "latitude": 0.166667,
          "longitude": 173.58333,
          "timezone": "Pacific/Tarawa"
        }
      ]
    }
  ],
  "Aalborg": [
    {
      "city": "Aalborg",
      "city_code": "AAL",
      "country": "Denmark",
      "latitude": "57.028811",
      "longitude": "9.917771",
      "airports": [
        {
          "iata": "AAL",
          "airport_name": "Aalborg",
          "latitude": 57.08655,
          "longitude": 9.872241,
          "timezone": "Europe/Copenhagen"
        }
      ]
    }
  ],
  "Mala Mala": [
    {
      "city": "Mala Mala",
      "city_code": "AAM",
      "country": "South Africa",
      "latitude": "-24.8",
      "longitude": "31.533333",
      "airports": [
        {
          "iata": "AAM",
          "airport_name": "Mala Mala",
          "latitude": -24.8,
          "longitude": 31.533333,
          "timezone": "Africa/Johannesburg"
        }
      ]
    }
  ],
  "Al Ain": [
    {
      "city": "Al Ain",
      "city_code": "AAN",
      "country": "United Arab Emirates",
      "latitude": "24.2075",
      "longitude": "55.744722",
      "airports": [
        {
          "iata": "AAN",
          "airport_name": "Al Ain",
          "latitude": 24.260231,
          "longitude": 55.616627,
          "timezone": "Asia/Dubai"
        }
      ]
    }
  ],
  "Anaco": [
    {
      "city": "Anaco",
      "city_code": "AAO",
      "country": "Venezuela",
      "latitude": "9.431944",
      "longitude": "-64.46389",
      "airports": []
    }
  ],
  "Anapa": [
    {
      "city": "Anapa",
      "city_code": "AAQ",
      "country": "Russia",
      "latitude": "44.9",
      "longitude": "37.316666",
      "airports": [
        {
          "iata": "AAQ",
          "airport_name": "Anapa",
          "latitude": 44.9,
          "longitude": 37.316666,
          "timezone": "Europe/Moscow"
        }
      ]
    }
  ],
  "Aarhus": [
    {
      "city": "Aarhus",
      "city_code": "AAR",
      "country": "Denmark",
      "latitude": "56.162939",
      "longitude": "10.203921",
      "airports": [
        {
          "iata": "AAR",
          "airport_name": "Aarhus Airport",
          "latitude": 56.30823,
          "longitude": 10.626351,
          "timezone": "Europe/Copenhagen"
        }
      ]
    }
  ],
  "Apalapsili": [
    {
      "city": "Apalapsili",
      "city_code": "AAS",
      "country": "Indonesia",
      "latitude": "-3.916667",
      "longitude": "139.25",
      "airports": []
    }
  ],
  "Altay": [
    {
      "city": "Altay",
      "city_code": "AAT",
      "country": "Beijing",
      "latitude": "47.750362",
      "longitude": "88.08444",
      "airports": [
        {
          "iata": "AAT",
          "airport_name": "Altay",
          "latitude": 47.750362,
          "longitude": 88.08444,
          "timezone": "Asia/Shanghai"
        }
      ]
    }
  ],
  "Asau": [
    {
      "city": "Asau",
      "city_code": "AAU",
      "country": "Samoa",
      "latitude": "-13.458333",
      "longitude": "-172.6",
      "airports": []
    }
  ],
  "Surallah": [
    {
      "city": "Surallah",
      "city_code": "AAV",
      "country": "Philippines",
      "latitude": "6.333333",
      "longitude": "124.76667",
      "airports": []
    }
  ],
  "Abbottabad": [
    {
      "city": "Abbottabad",
      "city_code": "AAW",
      "country": "Pakistan",
      "latitude": "34.2",
      "longitude": "73.25",
      "airports": []
    }
  ],
  "Araxa": [
    {
      "city": "Araxa",
      "city_code": "AAX",
      "country": "Brazil",
      "latitude": "-19.568056",
      "longitude": "-46.92917",
      "airports": [
        {
          "iata": "AAX",
          "airport_name": "Araxa",
          "latitude": -19.568056,
          "longitude": -46.92917,
          "timezone": "America/Sao_Paulo"
        }
      ]
    }
  ],
  "Al Ghaydah": [
    {
      "city": "Al Ghaydah",
      "city_code": "AAY",
      "country": "Yemen",
      "latitude": "16.19596",
      "longitude": "52.173256",
      "airports": [
        {
          "iata": "AAY",
          "airport_name": "Al Ghaydah",
          "latitude": 16.19596,
          "longitude": 52.173256,
          "timezone": "Asia/Aden"
        }
      ]
    }
  ],
  "Quetzaltenango": [
    {
      "city": "Quetzaltenango",
      "city_code": "AAZ",
      "country": "Guatemala",
      "latitude": "14.87",
      "longitude": "-91.5",
      "airports": [
        {
          "iata": "AAZ",
          "airport_name": "Quetzaltenango",
          "latitude": 14.87,
          "longitude": -91.5,
          "timezone": "America/Guatemala"
        }
      ]
    }
  ],
  "Abakan": [
    {
      "city": "Abakan",
      "city_code": "ABA",
      "country": "Russia",
      "latitude": "53.716667",
      "longitude": "91.5",
      "airports": [
        {
          "iata": "ABA",
          "airport_name": "Abakan",
          "latitude": 53.716667,
          "longitude": 91.5,
          "timezone": "Asia/Krasnoyarsk"
        }
      ]
    }
  ],
  "Asaba": [
    {
      "city": "Asaba",
      "city_code": "ABB",
      "country": "Nigeria",
      "latitude": "51.666668",
      "longitude": "-1.283333",
      "airports": [
        {
          "iata": "ABB",
          "airport_name": "Asaba International",
          "latitude": 6.203333,
          "longitude": 6.65888,
          "timezone": "Africa/Lagos"
        }
      ]
    }
  ],
  "Albacete": [
    {
      "city": "Albacete",
      "city_code": "ABC",
      "country": "Spain",
      "latitude": "38.997652",
      "longitude": "-1.86007",
      "airports": [
        {
          "iata": "ABC",
          "airport_name": "Los Llanos",
          "latitude": 38.948334,
          "longitude": -1.863333,
          "timezone": "Europe/Madrid"
        }
      ]
    }
  ],
  "Abadan": [
    {
      "city": "Abadan",
      "city_code": "ABD",
      "country": "Iran",
      "latitude": "30.363905",
      "longitude": "48.226597",
      "airports": [
        {
          "iata": "ABD",
          "airport_name": "Abadan",
          "latitude": 30.363905,
          "longitude": 48.226597,
          "timezone": "Asia/Tehran"
        }
      ]
    }
  ],
  "Allentown": [
    {
      "city": "Allentown",
      "city_code": "ABE",
      "country": "United States",
      "latitude": "40.651573",
      "longitude": "-75.434364",
      "airports": [
        {
          "iata": "ABE",
          "airport_name": "Lehigh Valley International",
          "latitude": 40.651573,
          "longitude": -75.434364,
          "timezone": "America/New_York"
        }
      ]
    }
  ],
  "Abaiang": [
    {
      "city": "Abaiang",
      "city_code": "ABF",
      "country": "Kiribati",
      "latitude": "1.670833",
      "longitude": "173.30417",
      "airports": []
    }
  ],
  "Abingdon": [
    {
      "city": "Abingdon",
      "city_code": "ABG",
      "country": "Australia",
      "latitude": "-17.666668",
      "longitude": "143.2",
      "airports": []
    },
    {
      "city": "Abingdon",
      "city_code": "VJI",
      "country": "United States",
      "latitude": "36.68611",
      "longitude": "-82.03333",
      "airports": []
    }
  ],
  "Alpha": [
    {
      "city": "Alpha",
      "city_code": "ABH",
      "country": "Australia",
      "latitude": "-23.65",
      "longitude": "146.63333",
      "airports": [
        {
          "iata": "ABH",
          "airport_name": "Alpha",
          "latitude": -23.65,
          "longitude": 146.63333,
          "timezone": "Australia/Brisbane"
        }
      ]
    }
  ],
  "Abilene": [
    {
      "city": "Abilene",
      "city_code": "ABI",
      "country": "United States",
      "latitude": "32.448736",
      "longitude": "-99.733144",
      "airports": [
        {
          "iata": "ABI",
          "airport_name": "Municipal",
          "latitude": 32.409443,
          "longitude": -99.679726,
          "timezone": "America/Chicago"
        }
      ]
    }
  ],
  "Abidjan": [
    {
      "city": "Abidjan",
      "city_code": "ABJ",
      "country": "",
      "latitude": "5.254879",
      "longitude": "-3.933015",
      "airports": [
        {
          "iata": "ABJ",
          "airport_name": "Felix Houphouet Boigny",
          "latitude": 5.254879,
          "longitude": -3.933015,
          "timezone": "Africa/Abidjan"
        }
      ]
    }
  ],
  "Kabri Dar": [
    {
      "city": "Kabri Dar",
      "city_code": "ABK",
      "country": "Ethiopia",
      "latitude": "6.733889",
      "longitude": "44.26611",
      "airports": [
        {
          "iata": "ABK",
          "airport_name": "Kabri Dar",
          "latitude": 6.733889,
          "longitude": 44.26611,
          "timezone": "Africa/Addis_Ababa"
        }
      ]
    }
  ],
  "Ambler": [
    {
      "city": "Ambler",
      "city_code": "ABL",
      "country": "United States",
      "latitude": "67.0875",
      "longitude": "-157.84584",
      "airports": [
        {
          "iata": "ABL",
          "airport_name": "Ambler",
          "latitude": 67.0875,
          "longitude": -157.84584,
          "timezone": "America/Anchorage"
        }
      ]
    }
  ],
  "Bamaga": [
    {
      "city": "Bamaga",
      "city_code": "ABM",
      "country": "Australia",
      "latitude": "-10.942619",
      "longitude": "142.45033",
      "airports": [
        {
          "iata": "ABM",
          "airport_name": "Bamaga Injinoo",
          "latitude": -10.942619,
          "longitude": 142.45033,
          "timezone": "Australia/Brisbane"
        }
      ]
    }
  ],
  "Albina": [
    {
      "city": "Albina",
      "city_code": "ABN",
      "country": "Suriname",
      "latitude": "5.5",
      "longitude": "-54.083332",
      "airports": []
    }
  ],
  "Aboisso": [
    {
      "city": "Aboisso",
      "city_code": "ABO",
      "country": "",
      "latitude": "5.433333",
      "longitude": "-3.216667",
      "airports": [
        {
          "iata": "ABO",
          "airport_name": "Aboisso",
          "latitude": 5.433333,
          "longitude": -3.216667,
          "timezone": "Africa/Abidjan"
        }
      ]
    }
  ],
  "Atkamba": [
    {
      "city": "Atkamba",
      "city_code": "ABP",
      "country": "Papua New Guinea",
      "latitude": "-6.066667",
      "longitude": "141.1",
      "airports": []
    }
  ],
  "Albuquerque": [
    {
      "city": "Albuquerque",
      "city_code": "ABQ",
      "country": "United States",
      "latitude": "35.049625",
      "longitude": "-106.617195",
      "airports": [
        {
          "iata": "ABQ",
          "airport_name": "Albuquerque International",
          "latitude": 35.049625,
          "longitude": -106.617195,
          "timezone": "America/Denver"
        }
      ]
    }
  ],
  "Aberdeen": [
    {
      "city": "Aberdeen",
      "city_code": "ABR",
      "country": "United States",
      "latitude": "45.4525",
      "longitude": "-98.42611",
      "airports": [
        {
          "iata": "ABR",
          "airport_name": "Municipal",
          "latitude": 45.4525,
          "longitude": -98.42611,
          "timezone": "America/Chicago"
        }
      ]
    },
    {
      "city": "Aberdeen",
      "city_code": "ABZ",
      "country": "United Kingdom",
      "latitude": "57.147492",
      "longitude": "-2.095397",
      "airports": [
        {
          "iata": "ABZ",
          "airport_name": "Dyce",
          "latitude": 57.200253,
          "longitude": -2.204186,
          "timezone": "Europe/London"
        }
      ]
    },
    {
      "city": "Aberdeen",
      "city_code": "APG",
      "country": "United States",
      "latitude": "39.5",
      "longitude": "-76.166664",
      "airports": []
    }
  ],
  "Abu Simbel": [
    {
      "city": "Abu Simbel",
      "city_code": "ABS",
      "country": "Egypt",
      "latitude": "22.367567",
      "longitude": "31.609774",
      "airports": [
        {
          "iata": "ABS",
          "airport_name": "Abu Simbel",
          "latitude": 22.367567,
          "longitude": 31.609774,
          "timezone": "Africa/Cairo"
        }
      ]
    }
  ],
  "Al-Baha": [
    {
      "city": "Al-Baha",
      "city_code": "ABT",
      "country": "Saudi Arabia",
      "latitude": "20.29401",
      "longitude": "41.64002",
      "airports": [
        {
          "iata": "ABT",
          "airport_name": "Al-Aqiq",
          "latitude": 20.29401,
          "longitude": 41.64002,
          "timezone": "Asia/Riyadh"
        }
      ]
    }
  ],
  "Atambua": [
    {
      "city": "Atambua",
      "city_code": "ABU",
      "country": "Indonesia",
      "latitude": "-9.133333",
      "longitude": "124.88333",
      "airports": [
        {
          "iata": "ABU",
          "airport_name": "Atambua",
          "latitude": -9.133333,
          "longitude": 124.88333,
          "timezone": "Asia/Makassar"
        }
      ]
    }
  ],
  "Abuja": [
    {
      "city": "Abuja",
      "city_code": "ABV",
      "country": "Nigeria",
      "latitude": "9.004614",
      "longitude": "7.270447",
      "airports": [
        {
          "iata": "ABV",
          "airport_name": "Nnamdi Azikiwe International Airport",
          "latitude": 9.004614,
          "longitude": 7.270447,
          "timezone": "Africa/Lagos"
        }
      ]
    }
  ],
  "Abau": [
    {
      "city": "Abau",
      "city_code": "ABW",
      "country": "Papua New Guinea",
      "latitude": "-10.183333",
      "longitude": "148.7",
      "airports": []
    }
  ],
  "Albury": [
    {
      "city": "Albury",
      "city_code": "ABX",
      "country": "Australia",
      "latitude": "-36.069626",
      "longitude": "146.95453",
      "airports": [
        {
          "iata": "ABX",
          "airport_name": "Albury",
          "latitude": -36.069626,
          "longitude": 146.95453,
          "timezone": "Australia/Sydney"
        }
      ]
    }
  ],
  "Albany": [
    {
      "city": "Albany",
      "city_code": "ABY",
      "country": "United States",
      "latitude": "31.578507",
      "longitude": "-84.155741",
      "airports": [
        {
          "iata": "ABY",
          "airport_name": "Dougherty County",
          "latitude": 31.532223,
          "longitude": -84.19611,
          "timezone": "America/New_York"
        }
      ]
    },
    {
      "city": "Albany",
      "city_code": "ALB",
      "country": "United States",
      "latitude": "42.652579",
      "longitude": "-73.756232",
      "airports": [
        {
          "iata": "ALB",
          "airport_name": "Albany International",
          "latitude": 42.745277,
          "longitude": -73.809555,
          "timezone": "America/New_York"
        }
      ]
    },
    {
      "city": "Albany",
      "city_code": "ALH",
      "country": "Australia",
      "latitude": "-34.944996",
      "longitude": "117.804",
      "airports": [
        {
          "iata": "ALH",
          "airport_name": "Albany",
          "latitude": -34.944996,
          "longitude": 117.804,
          "timezone": "Australia/Perth"
        }
      ]
    },
    {
      "city": "Albany",
      "city_code": "CVO",
      "country": "United States",
      "latitude": "44.63333",
      "longitude": "-123.11667",
      "airports": [
        {
          "iata": "CVO",
          "airport_name": "Albany",
          "latitude": 44.63333,
          "longitude": -123.11667,
          "timezone": "America/Los_Angeles"
        }
      ]
    }
  ],
  "Acapulco": [
    {
      "city": "Acapulco",
      "city_code": "ACA",
      "country": "Mexico",
      "latitude": "16.762403",
      "longitude": "-99.75459",
      "airports": [
        {
          "iata": "ACA",
          "airport_name": "General Juan N. Alvarez International",
          "latitude": 16.762403,
          "longitude": -99.75459,
          "timezone": "America/Mexico_City"
        }
      ]
    }
  ],
  "Bellaire": [
    {
      "city": "Bellaire",
      "city_code": "ACB",
      "country": "United States",
      "latitude": "44.983334",
      "longitude": "-85.21667",
      "airports": [
        {
          "iata": "ACB",
          "airport_name": "Antrim County",
          "latitude": 44.983334,
          "longitude": -85.21667,
          "timezone": "America/Detroit"
        }
      ]
    }
  ],
  "Accra": [
    {
      "city": "Accra",
      "city_code": "ACC",
      "country": "Ghana",
      "latitude": "5.60737",
      "longitude": "-0.171769",
      "airports": [
        {
          "iata": "ACC",
          "airport_name": "Kotoka",
          "latitude": 5.60737,
          "longitude": -0.171769,
          "timezone": "Africa/Accra"
        }
      ]
    }
  ],
  "Acandi": [
    {
      "city": "Acandi",
      "city_code": "ACD",
      "country": "Colombia",
      "latitude": "8.516667",
      "longitude": "-77.3",
      "airports": [
        {
          "iata": "ACD",
          "airport_name": "Acandi",
          "latitude": 8.516667,
          "longitude": -77.3,
          "timezone": "America/Bogota"
        }
      ]
    }
  ],
  "Arrecife": [
    {
      "city": "Arrecife",
      "city_code": "ACE",
      "country": "Spain",
      "latitude": "28.950668",
      "longitude": "-13.609059",
      "airports": [
        {
          "iata": "ACE",
          "airport_name": "Lanzarote",
          "latitude": 28.950668,
          "longitude": -13.609059,
          "timezone": "Atlantic/Canary"
        }
      ]
    }
  ],
  "Altenrhein": [
    {
      "city": "Altenrhein",
      "city_code": "ACH",
      "country": "Switzerland",
      "latitude": "47.483334",
      "longitude": "9.566667",
      "airports": [
        {
          "iata": "ACH",
          "airport_name": "Altenrhein",
          "latitude": 47.483334,
          "longitude": 9.566667,
          "timezone": "Europe/Zurich"
        }
      ]
    }
  ],
  "Alderney": [
    {
      "city": "Alderney",
      "city_code": "ACI",
      "country": "Guernsey",
      "latitude": "49.709347",
      "longitude": "-2.215369",
      "airports": [
        {
          "iata": "ACI",
          "airport_name": "The Blaye",
          "latitude": 49.709347,
          "longitude": -2.215369,
          "timezone": "Europe/Guernsey"
        }
      ]
    }
  ],
  "Anuradhapura": [
    {
      "city": "Anuradhapura",
      "city_code": "ACJ",
      "country": "Sri Lanka",
      "latitude": "8.35",
      "longitude": "80.38333",
      "airports": [
        {
          "iata": "ACJ",
          "airport_name": "Anuradhapura",
          "latitude": 8.35,
          "longitude": 80.38333,
          "timezone": "Asia/Colombo"
        }
      ]
    }
  ],
  "Nantucket": [
    {
      "city": "Nantucket",
      "city_code": "ACK",
      "country": "United States",
      "latitude": "41.256668",
      "longitude": "-70.05972",
      "airports": [
        {
          "iata": "ACK",
          "airport_name": "Nantucket Memorial",
          "latitude": 41.256668,
          "longitude": -70.05972,
          "timezone": "America/New_York"
        }
      ]
    }
  ],
  "Aguaclara": [
    {
      "city": "Aguaclara",
      "city_code": "ACL",
      "country": "Colombia",
      "latitude": "4.75",
      "longitude": "-73",
      "airports": []
    }
  ],
  "Arica": [
    {
      "city": "Arica",
      "city_code": "ACM",
      "country": "Colombia",
      "latitude": "-2",
      "longitude": "-71.833336",
      "airports": []
    },
    {
      "city": "Arica",
      "city_code": "ARI",
      "country": "",
      "latitude": "-18.349766",
      "longitude": "-70.335556",
      "airports": [
        {
          "iata": "ARI",
          "airport_name": "Chacalluta",
          "latitude": -18.349766,
          "longitude": -70.335556,
          "timezone": "America/Santiago"
        }
      ]
    }
  ],
  "Acuna": [
    {
      "city": "Acuna",
      "city_code": "ACN",
      "country": "Mexico",
      "latitude": "29.3",
      "longitude": "-100.916664",
      "airports": [
        {
          "iata": "ACN",
          "airport_name": "Ciudad Acuña International Airport",
          "latitude": 29.3,
          "longitude": -100.916664,
          "timezone": "America/Matamoros"
        }
      ]
    }
  ],
  "Sahand": [
    {
      "city": "Sahand",
      "city_code": "ACP",
      "country": "Iran",
      "latitude": "37.347244",
      "longitude": "46.145115",
      "airports": [
        {
          "iata": "ACP",
          "airport_name": "Sahand",
          "latitude": 37.347244,
          "longitude": 46.145115,
          "timezone": "Asia/Tehran"
        }
      ]
    }
  ],
  "Araracuara": [
    {
      "city": "Araracuara",
      "city_code": "ACR",
      "country": "Colombia",
      "latitude": "-0.383333",
      "longitude": "-72.3",
      "airports": [
        {
          "iata": "ACR",
          "airport_name": "Araracuara",
          "latitude": -0.383333,
          "longitude": -72.3,
          "timezone": "America/Bogota"
        }
      ]
    }
  ],
  "Achinsk": [
    {
      "city": "Achinsk",
      "city_code": "ACS",
      "country": "Russia",
      "latitude": "56.266666",
      "longitude": "90.566666",
      "airports": [
        {
          "iata": "ACS",
          "airport_name": "Achinsk",
          "latitude": 56.266666,
          "longitude": 90.566666,
          "timezone": "Asia/Krasnoyarsk"
        }
      ]
    }
  ],
  "Waco": [
    {
      "city": "Waco",
      "city_code": "ACT",
      "country": "United States",
      "latitude": "31.549333",
      "longitude": "-97.14667",
      "airports": [
        {
          "iata": "ACT",
          "airport_name": "Municipal",
          "latitude": 31.609133,
          "longitude": -97.22321,
          "timezone": "America/Chicago"
        },
        {
          "iata": "CNW",
          "airport_name": "TSTC Waco Airport",
          "latitude": 31.916668,
          "longitude": -97.13333,
          "timezone": "America/Chicago"
        }
      ]
    }
  ],
  "Achutupo": [
    {
      "city": "Achutupo",
      "city_code": "ACU",
      "country": "Panama",
      "latitude": "9.576389",
      "longitude": "-79.72444",
      "airports": []
    }
  ],
  "Arcata": [
    {
      "city": "Arcata",
      "city_code": "ACV",
      "country": "United States",
      "latitude": "40.970913",
      "longitude": "-124.106926",
      "airports": [
        {
          "iata": "ACV",
          "airport_name": "Arcata",
          "latitude": 40.970913,
          "longitude": -124.106926,
          "timezone": "America/Los_Angeles"
        }
      ]
    }
  ],
  "Xingyi": [
    {
      "city": "Xingyi",
      "city_code": "ACX",
      "country": "Beijing",
      "latitude": "25.085556",
      "longitude": "104.95944",
      "airports": []
    }
  ],
  "Zabol": [
    {
      "city": "Zabol",
      "city_code": "ACZ",
      "country": "Iran",
      "latitude": "31.087694",
      "longitude": "61.542244",
      "airports": [
        {
          "iata": "ACZ",
          "airport_name": "Zabol Airport",
          "latitude": 31.087694,
          "longitude": 61.542244,
          "timezone": "Asia/Tehran"
        }
      ]
    }
  ],
  "Adana": [
    {
      "city": "Adana",
      "city_code": "ADA",
      "country": "Turkey",
      "latitude": "37",
      "longitude": "35.321333",
      "airports": [
        {
          "iata": "ADA",
          "airport_name": "Adana",
          "latitude": 36.98503,
          "longitude": 35.29736,
          "timezone": "Europe/Istanbul"
        }
      ]
    }
  ],
  "Andakombe": [
    {
      "city": "Andakombe",
      "city_code": "ADC",
      "country": "Papua New Guinea",
      "latitude": "-7.133333",
      "longitude": "145.73334",
      "airports": []
    }
  ],
  "Addis Ababa": [
    {
      "city": "Addis Ababa",
      "city_code": "ADD",
      "country": "Ethiopia",
      "latitude": "8.983759",
      "longitude": "38.7959",
      "airports": [
        {
          "iata": "ADD",
          "airport_name": "Bole International",
          "latitude": 8.983759,
          "longitude": 38.7959,
          "timezone": "Africa/Addis_Ababa"
        }
      ]
    }
  ],
  "Aden": [
    {
      "city": "Aden",
      "city_code": "ADE",
      "country": "Yemen",
      "latitude": "12.826116",
      "longitude": "45.037537",
      "airports": [
        {
          "iata": "ADE",
          "airport_name": "Aden International Airport",
          "latitude": 12.826116,
          "longitude": 45.037537,
          "timezone": "Asia/Aden"
        }
      ]
    }
  ],
  "Adiyaman": [
    {
      "city": "Adiyaman",
      "city_code": "ADF",
      "country": "Turkey",
      "latitude": "37.75",
      "longitude": "38.266666",
      "airports": [
        {
          "iata": "ADF",
          "airport_name": "Adiyaman",
          "latitude": 37.75,
          "longitude": 38.266666,
          "timezone": "Europe/Istanbul"
        }
      ]
    }
  ],
  "Adrian": [
    {
      "city": "Adrian",
      "city_code": "ADG",
      "country": "United States",
      "latitude": "41.9",
      "longitude": "-84.03333",
      "airports": [
        {
          "iata": "ADG",
          "airport_name": "Lenawee County",
          "latitude": 41.9,
          "longitude": -84.03333,
          "timezone": "America/Detroit"
        }
      ]
    }
  ],
  "Aldan": [
    {
      "city": "Aldan",
      "city_code": "ADH",
      "country": "Russia",
      "latitude": "58.6",
      "longitude": "125.4",
      "airports": [
        {
          "iata": "ADH",
          "airport_name": "Aldan",
          "latitude": 58.6,
          "longitude": 125.4,
          "timezone": "Asia/Yakutsk"
        }
      ]
    }
  ],
  "Arandis": [
    {
      "city": "Arandis",
      "city_code": "ADI",
      "country": "Namibia",
      "latitude": "-22.4",
      "longitude": "15",
      "airports": [
        {
          "iata": "ADI",
          "airport_name": "Arandis",
          "latitude": -22.4,
          "longitude": 15.0,
          "timezone": "Africa/Windhoek"
        }
      ]
    }
  ],
  "Adak Island": [
    {
      "city": "Adak Island",
      "city_code": "ADK",
      "country": "United States",
      "latitude": "51.88278",
      "longitude": "-176.64473",
      "airports": [
        {
          "iata": "ADK",
          "airport_name": "Adak Island Ns",
          "latitude": 51.88278,
          "longitude": -176.64473,
          "timezone": "America/Adak"
        }
      ]
    }
  ],
  "Adelaide": [
    {
      "city": "Adelaide",
      "city_code": "ADL",
      "country": "Australia",
      "latitude": "-34.928621",
      "longitude": "138.599959",
      "airports": [
        {
          "iata": "ADL",
          "airport_name": "Adelaide International Airport",
          "latitude": -34.938175,
          "longitude": 138.53735,
          "timezone": "Australia/Adelaide"
        }
      ]
    }
  ],
  "Ardmore": [
    {
      "city": "Ardmore",
      "city_code": "ADM",
      "country": "United States",
      "latitude": "34.303055",
      "longitude": "-97.01945",
      "airports": [
        {
          "iata": "ADM",
          "airport_name": "Ardmore Municipal Airport",
          "latitude": 34.303055,
          "longitude": -97.01945,
          "timezone": "America/Chicago"
        },
        {
          "iata": "AHD",
          "airport_name": "Downtown",
          "latitude": 34.166668,
          "longitude": -97.13333,
          "timezone": "America/Chicago"
        }
      ]
    },
    {
      "city": "Ardmore",
      "city_code": "AMZ",
      "country": "New Zealand",
      "latitude": "-37.033333",
      "longitude": "174.96666",
      "airports": [
        {
          "iata": "AMZ",
          "airport_name": "Ardmore",
          "latitude": -37.033333,
          "longitude": 174.96666,
          "timezone": "Pacific/Auckland"
        }
      ]
    }
  ],
  "Andes": [
    {
      "city": "Andes",
      "city_code": "ADN",
      "country": "Colombia",
      "latitude": "5.666667",
      "longitude": "-75.933334",
      "airports": []
    }
  ],
  "Andamooka": [
    {
      "city": "Andamooka",
      "city_code": "ADO",
      "country": "Australia",
      "latitude": "-31.016666",
      "longitude": "137.15",
      "airports": [
        {
          "iata": "ADO",
          "airport_name": "Andamooka",
          "latitude": -31.016666,
          "longitude": 137.15,
          "timezone": "Australia/Adelaide"
        }
      ]
    }
  ],
  "Ampara": [
    {
      "city": "Ampara",
      "city_code": "ADP",
      "country": "Sri Lanka",
      "latitude": "7.336389",
      "longitude": "81.625275",
      "airports": []
    }
  ],
  "Kodiak": [
    {
      "city": "Kodiak",
      "city_code": "ADQ",
      "country": "United States",
      "latitude": "57.79",
      "longitude": "-152.407222",
      "airports": [
        {
          "iata": "ADQ",
          "airport_name": "Kodiak Airport",
          "latitude": 57.755276,
          "longitude": -152.51297,
          "timezone": "America/Anchorage"
        },
        {
          "iata": "KDK",
          "airport_name": "Municipal",
          "latitude": 57.80722,
          "longitude": -152.37,
          "timezone": "America/Anchorage"
        }
      ]
    }
  ],
  "Andrews": [
    {
      "city": "Andrews",
      "city_code": "ADR",
      "country": "United States",
      "latitude": "33.45",
      "longitude": "-79.566666",
      "airports": [
        {
          "iata": "ADR",
          "airport_name": "Andrews",
          "latitude": 33.45,
          "longitude": -79.566666,
          "timezone": "America/New_York"
        }
      ]
    }
  ],
  "Ada": [
    {
      "city": "Ada",
      "city_code": "ADT",
      "country": "United States",
      "latitude": "34.8",
      "longitude": "-96.666664",
      "airports": [
        {
          "iata": "ADT",
          "airport_name": "Ada Municipal",
          "latitude": 34.8,
          "longitude": -96.666664,
          "timezone": "America/Chicago"
        }
      ]
    }
  ],
  "Ardabil": [
    {
      "city": "Ardabil",
      "city_code": "ADU",
      "country": "Iran",
      "latitude": "38.323826",
      "longitude": "48.42125",
      "airports": [
        {
          "iata": "ADU",
          "airport_name": "Ardabil",
          "latitude": 38.323826,
          "longitude": 48.42125,
          "timezone": "Asia/Tehran"
        }
      ]
    }
  ],
  "Camp Springs": [
    {
      "city": "Camp Springs",
      "city_code": "ADW",
      "country": "United States",
      "latitude": "38.816666",
      "longitude": "-76.86667",
      "airports": []
    }
  ],
  "St Andrews": [
    {
      "city": "St Andrews",
      "city_code": "ADX",
      "country": "United Kingdom",
      "latitude": "56.36667",
      "longitude": "-2.866667",
      "airports": [
        {
          "iata": "ADX",
          "airport_name": "Leuchars",
          "latitude": 56.36667,
          "longitude": -2.866667,
          "timezone": "Europe/London"
        }
      ]
    }
  ],
  "Alldays": [
    {
      "city": "Alldays",
      "city_code": "ADY",
      "country": "South Africa",
      "latitude": "-22.666668",
      "longitude": "29.05",
      "airports": [
        {
          "iata": "ADY",
          "airport_name": "Alldays",
          "latitude": -22.666668,
          "longitude": 29.05,
          "timezone": "Africa/Johannesburg"
        }
      ]
    }
  ],
  "San Andres Island": [
    {
      "city": "San Andres Island",
      "city_code": "ADZ",
      "country": "Colombia",
      "latitude": "12.586047",
      "longitude": "-81.70221",
      "airports": [
        {
          "iata": "ADZ",
          "airport_name": "San Andres Island",
          "latitude": 12.586047,
          "longitude": -81.70221,
          "timezone": "America/Bogota"
        }
      ]
    }
  ],
  "Abemama Atoll": [
    {
      "city": "Abemama Atoll",
      "city_code": "AEA",
      "country": "Kiribati",
      "latitude": "0.483333",
      "longitude": "173.85",
      "airports": [
        {
          "iata": "AEA",
          "airport_name": "Abemama Atoll",
          "latitude": 0.483333,
          "longitude": 173.85,
          "timezone": "Pacific/Tarawa"
        }
      ]
    }
  ],
  "Baise": [
    {
      "city": "Baise",
      "city_code": "AEB",
      "country": "Beijing",
      "latitude": "23.71947",
      "longitude": "106.96777",
      "airports": []
    }
  ],
  "Aleneva": [
    {
      "city": "Aleneva",
      "city_code": "AED",
      "country": "United States",
      "latitude": "58.033333",
      "longitude": "-152.9",
      "airports": []
    }
  ],
  "Adareil": [
    {
      "city": "Adareil",
      "city_code": "AEE",
      "country": "South Sudan",
      "latitude": "10.05667",
      "longitude": "32.96096",
      "airports": []
    }
  ],
  "Aek Godang": [
    {
      "city": "Aek Godang",
      "city_code": "AEG",
      "country": "Indonesia",
      "latitude": "1.399722",
      "longitude": "99.416664",
      "airports": [
        {
          "iata": "AEG",
          "airport_name": "Aek Godang",
          "latitude": 1.399722,
          "longitude": 99.416664,
          "timezone": "Asia/Jakarta"
        }
      ]
    }
  ],
  "Abeche": [
    {
      "city": "Abeche",
      "city_code": "AEH",
      "country": "",
      "latitude": "13.851389",
      "longitude": "20.850834",
      "airports": [
        {
          "iata": "AEH",
          "airport_name": "Abéché",
          "latitude": 13.851389,
          "longitude": 20.850834,
          "timezone": "Africa/Ndjamena"
        }
      ]
    }
  ],
  "Algeciras": [
    {
      "city": "Algeciras",
      "city_code": "AEI",
      "country": "Spain",
      "latitude": "36.1289",
      "longitude": "-5.441301",
      "airports": []
    }
  ],
  "Aseki": [
    {
      "city": "Aseki",
      "city_code": "AEK",
      "country": "Papua New Guinea",
      "latitude": "-7.366667",
      "longitude": "146.28334",
      "airports": []
    }
  ],
  "Albert Lea": [
    {
      "city": "Albert Lea",
      "city_code": "AEL",
      "country": "United States",
      "latitude": "43.65",
      "longitude": "-93.36667",
      "airports": [
        {
          "iata": "AEL",
          "airport_name": "Albert Lea",
          "latitude": 43.65,
          "longitude": -93.36667,
          "timezone": "America/Chicago"
        }
      ]
    }
  ],
  "Aioun El Atrouss": [
    {
      "city": "Aioun El Atrouss",
      "city_code": "AEO",
      "country": "Mauritania",
      "latitude": "16.709167",
      "longitude": "-9.635556",
      "airports": [
        {
          "iata": "AEO",
          "airport_name": "Aioun El Atrouss",
          "latitude": 16.709167,
          "longitude": -9.635556,
          "timezone": "Africa/Nouakchott"
        }
      ]
    }
  ],
  "Sochi": [
    {
      "city": "Sochi",
      "city_code": "AER",
      "country": "Russia",
      "latitude": "43.44884",
      "longitude": "39.941105",
      "airports": [
        {
          "iata": "AER",
          "airport_name": "Sochi/Adler International Airport",
          "latitude": 43.44884,
          "longitude": 39.941105,
          "timezone": "Europe/Moscow"
        }
      ]
    }
  ],
  "Aalesund": [
    {
      "city": "Aalesund",
      "city_code": "AES",
      "country": "Norway",
      "latitude": "62.559643",
      "longitude": "6.116605",
      "airports": [
        {
          "iata": "AES",
          "airport_name": "Vigra",
          "latitude": 62.559643,
          "longitude": 6.116605,
          "timezone": "Europe/Oslo"
        }
      ]
    }
  ],
  "Allakaket": [
    {
      "city": "Allakaket",
      "city_code": "AET",
      "country": "United States",
      "latitude": "66.56167",
      "longitude": "-152.65834",
      "airports": [
        {
          "iata": "AET",
          "airport_name": "Allakaket",
          "latitude": 66.56167,
          "longitude": -152.65834,
          "timezone": "America/Anchorage"
        }
      ]
    }
  ],
  "Abu Musa": [
    {
      "city": "Abu Musa",
      "city_code": "AEU",
      "country": "Iran",
      "latitude": "25.8875",
      "longitude": "55.041668",
      "airports": [
        {
          "iata": "AEU",
          "airport_name": "Abu Musa",
          "latitude": 25.8875,
          "longitude": 55.041668,
          "timezone": "Asia/Tehran"
        }
      ]
    }
  ],
  "Alexandria": [
    {
      "city": "Alexandria",
      "city_code": "AEX",
      "country": "United States",
      "latitude": "31.311294",
      "longitude": "-92.445137",
      "airports": [
        {
          "iata": "AEX",
          "airport_name": "Alexandria International",
          "latitude": 31.321268,
          "longitude": -92.53958,
          "timezone": "America/Chicago"
        },
        {
          "iata": "ESF",
          "airport_name": "Esler Field",
          "latitude": 31.395,
          "longitude": -92.29694,
          "timezone": "America/Chicago"
        }
      ]
    },
    {
      "city": "Alexandria",
      "city_code": "ALY",
      "country": "Egypt",
      "latitude": "31.2135",
      "longitude": "29.9443",
      "airports": [
        {
          "iata": "ALY",
          "airport_name": "El Nohza",
          "latitude": 31.192545,
          "longitude": 29.953058,
          "timezone": "Africa/Cairo"
        },
        {
          "iata": "HBE",
          "airport_name": "Borg el Arab",
          "latitude": 30.922234,
          "longitude": 29.686504,
          "timezone": "Africa/Cairo"
        }
      ]
    },
    {
      "city": "Alexandria",
      "city_code": "AXL",
      "country": "Australia",
      "latitude": "-19.083332",
      "longitude": "136.66667",
      "airports": [
        {
          "iata": "AXL",
          "airport_name": "Alexandria",
          "latitude": -19.083332,
          "longitude": 136.66667,
          "timezone": "Australia/Darwin"
        }
      ]
    },
    {
      "city": "Alexandria",
      "city_code": "AXN",
      "country": "United States",
      "latitude": "45.86722",
      "longitude": "-95.394165",
      "airports": [
        {
          "iata": "AXN",
          "airport_name": "Alexandria",
          "latitude": 45.86722,
          "longitude": -95.394165,
          "timezone": "America/Chicago"
        }
      ]
    },
    {
      "city": "Alexandria",
      "city_code": "XFS",
      "country": "Canada",
      "latitude": "43.8833",
      "longitude": "27.75",
      "airports": []
    }
  ],
  "Akureyri": [
    {
      "city": "Akureyri",
      "city_code": "AEY",
      "country": "Iceland",
      "latitude": "65.654564",
      "longitude": "-18.075068",
      "airports": [
        {
          "iata": "AEY",
          "airport_name": "Akureyri",
          "latitude": 65.654564,
          "longitude": -18.075068,
          "timezone": "Atlantic/Reykjavik"
        }
      ]
    }
  ],
  "San Rafael": [
    {
      "city": "San Rafael",
      "city_code": "AFA",
      "country": "Argentina",
      "latitude": "-34.58917",
      "longitude": "-68.40056",
      "airports": [
        {
          "iata": "AFA",
          "airport_name": "San Rafael",
          "latitude": -34.58917,
          "longitude": -68.40056,
          "timezone": "America/Argentina/Mendoza"
        }
      ]
    },
    {
      "city": "San Rafael",
      "city_code": "SRF",
      "country": "United States",
      "latitude": "37.973535",
      "longitude": "-122.531087",
      "airports": []
    }
  ],
  "Port Alfred": [
    {
      "city": "Port Alfred",
      "city_code": "AFD",
      "country": "South Africa",
      "latitude": "-33.583332",
      "longitude": "26.883333",
      "airports": [
        {
          "iata": "AFD",
          "airport_name": "Port Alfred",
          "latitude": -33.583332,
          "longitude": 26.883333,
          "timezone": "Africa/Johannesburg"
        }
      ]
    }
  ],
  "Amalfi": [
    {
      "city": "Amalfi",
      "city_code": "AFI",
      "country": "Colombia",
      "latitude": "6.916667",
      "longitude": "-75.066666",
      "airports": [
        {
          "iata": "AFI",
          "airport_name": "Amalfi",
          "latitude": 6.916667,
          "longitude": -75.066666,
          "timezone": "America/Bogota"
        }
      ]
    }
  ],
  "Alta Floresta": [
    {
      "city": "Alta Floresta",
      "city_code": "AFL",
      "country": "Brazil",
      "latitude": "-9.872456",
      "longitude": "-56.104767",
      "airports": [
        {
          "iata": "AFL",
          "airport_name": "Alta Floresta",
          "latitude": -9.872456,
          "longitude": -56.104767,
          "timezone": "America/Cuiaba"
        }
      ]
    }
  ],
  "Jaffrey": [
    {
      "city": "Jaffrey",
      "city_code": "AFN",
      "country": "United States",
      "latitude": "42.833332",
      "longitude": "-72.066666",
      "airports": [
        {
          "iata": "AFN",
          "airport_name": "Municipal",
          "latitude": 42.833332,
          "longitude": -72.066666,
          "timezone": "America/New_York"
        }
      ]
    }
  ],
  "Afton": [
    {
      "city": "Afton",
      "city_code": "AFO",
      "country": "United States",
      "latitude": "42.733334",
      "longitude": "-110.933334",
      "airports": [
        {
          "iata": "AFO",
          "airport_name": "Municipal",
          "latitude": 42.733334,
          "longitude": -110.933334,
          "timezone": "America/Denver"
        }
      ]
    }
  ],
  "Afore": [
    {
      "city": "Afore",
      "city_code": "AFR",
      "country": "Papua New Guinea",
      "latitude": "-9.133333",
      "longitude": "148.38333",
      "airports": []
    }
  ],
  "Zarafshan": [
    {
      "city": "Zarafshan",
      "city_code": "AFS",
      "country": "Uzbekistan",
      "latitude": "41.61361",
      "longitude": "64.233055",
      "airports": [
        {
          "iata": "AFS",
          "airport_name": "Zarafshan",
          "latitude": 41.61361,
          "longitude": 64.233055,
          "timezone": "Asia/Samarkand"
        }
      ]
    }
  ],
  "Afutara": [
    {
      "city": "Afutara",
      "city_code": "AFT",
      "country": "Solomon Islands",
      "latitude": "-9.2",
      "longitude": "160.85",
      "airports": [
        {
          "iata": "AFT",
          "airport_name": "Afutara Aerodrome",
          "latitude": -9.2,
          "longitude": 160.85,
          "timezone": "Pacific/Guadalcanal"
        }
      ]
    }
  ],
  "Afyon": [
    {
      "city": "Afyon",
      "city_code": "AFY",
      "country": "Turkey",
      "latitude": "38.733334",
      "longitude": "30.6",
      "airports": [
        {
          "iata": "AFY",
          "airport_name": "Afyon",
          "latitude": 38.733334,
          "longitude": 30.6,
          "timezone": "Europe/Istanbul"
        }
      ]
    }
  ],
  "Sabzevar": [
    {
      "city": "Sabzevar",
      "city_code": "AFZ",
      "country": "Iran",
      "latitude": "36.171513",
      "longitude": "57.60332",
      "airports": [
        {
          "iata": "AFZ",
          "airport_name": "Sabzevar",
          "latitude": 36.171513,
          "longitude": 57.60332,
          "timezone": "Asia/Tehran"
        }
      ]
    }
  ],
  "Agadir": [
    {
      "city": "Agadir",
      "city_code": "AGA",
      "country": "Morocco",
      "latitude": "30.378326",
      "longitude": "-9.555895",
      "airports": [
        {
          "iata": "AGA",
          "airport_name": "Agadir Almassira",
          "latitude": 30.378326,
          "longitude": -9.555895,
          "timezone": "Africa/Casablanca"
        }
      ]
    }
  ],
  "Anggi": [
    {
      "city": "Anggi",
      "city_code": "AGD",
      "country": "Indonesia",
      "latitude": "-1.383333",
      "longitude": "133.86667",
      "airports": []
    }
  ],
  "Wangerooge": [
    {
      "city": "Wangerooge",
      "city_code": "AGE",
      "country": "Berlin",
      "latitude": "53.783333",
      "longitude": "7.916667",
      "airports": []
    }
  ],
  "Agen": [
    {
      "city": "Agen",
      "city_code": "AGF",
      "country": "France",
      "latitude": "44.17361",
      "longitude": "0.598611",
      "airports": [
        {
          "iata": "AGF",
          "airport_name": "La Garenne",
          "latitude": 44.17361,
          "longitude": 0.598611,
          "timezone": "Europe/Paris"
        }
      ]
    }
  ],
  "Angoram": [
    {
      "city": "Angoram",
      "city_code": "AGG",
      "country": "Papua New Guinea",
      "latitude": "-4.168611",
      "longitude": "144.07388",
      "airports": []
    }
  ],
  "Angelholm": [
    {
      "city": "Angelholm",
      "city_code": "AGH",
      "country": "Sweden",
      "latitude": "56.2432",
      "longitude": "12.861509",
      "airports": [
        {
          "iata": "AGH",
          "airport_name": "Angelholm",
          "latitude": 56.293056,
          "longitude": 12.8625,
          "timezone": "Europe/Stockholm"
        }
      ]
    }
  ],
  "Wageningen": [
    {
      "city": "Wageningen",
      "city_code": "AGI",
      "country": "Suriname",
      "latitude": "5.833333",
      "longitude": "-56.833332",
      "airports": [
        {
          "iata": "AGI",
          "airport_name": "Wageningen",
          "latitude": 5.833333,
          "longitude": -56.833332,
          "timezone": "America/Paramaribo"
        }
      ]
    }
  ],
  "Aguni": [
    {
      "city": "Aguni",
      "city_code": "AGJ",
      "country": "Japan",
      "latitude": "26.589722",
      "longitude": "127.23805",
      "airports": [
        {
          "iata": "AGJ",
          "airport_name": "Aguni",
          "latitude": 26.589722,
          "longitude": 127.23805,
          "timezone": "Asia/Tokyo"
        }
      ]
    }
  ],
  "Kagua": [
    {
      "city": "Kagua",
      "city_code": "AGK",
      "country": "Papua New Guinea",
      "latitude": "-6.403333",
      "longitude": "143.84666",
      "airports": []
    }
  ],
  "Wanigela": [
    {
      "city": "Wanigela",
      "city_code": "AGL",
      "country": "Papua New Guinea",
      "latitude": "-9.340278",
      "longitude": "149.15527",
      "airports": [
        {
          "iata": "AGL",
          "airport_name": "Wanigela",
          "latitude": -9.340278,
          "longitude": 149.15527,
          "timezone": "Pacific/Port_Moresby"
        }
      ]
    }
  ],
  "Tasiilaq": [
    {
      "city": "Tasiilaq",
      "city_code": "AGM",
      "country": "Greenland",
      "latitude": "65.6",
      "longitude": "-37.683334",
      "airports": [
        {
          "iata": "AGM",
          "airport_name": "Tasiilaq",
          "latitude": 65.6,
          "longitude": -37.683334,
          "timezone": "America/Godthab"
        }
      ]
    }
  ],
  "Angoon": [
    {
      "city": "Angoon",
      "city_code": "AGN",
      "country": "United States",
      "latitude": "57.503887",
      "longitude": "-134.58333",
      "airports": [
        {
          "iata": "AGN",
          "airport_name": "Angoon",
          "latitude": 57.503887,
          "longitude": -134.58333,
          "timezone": "America/Juneau"
        }
      ]
    }
  ],
  "Magnolia": [
    {
      "city": "Magnolia",
      "city_code": "AGO",
      "country": "United States",
      "latitude": "33.266666",
      "longitude": "-93.23333",
      "airports": [
        {
          "iata": "AGO",
          "airport_name": "Municipal",
          "latitude": 33.266666,
          "longitude": -93.23333,
          "timezone": "America/Chicago"
        }
      ]
    }
  ],
  "Malaga": [
    {
      "city": "Malaga",
      "city_code": "AGP",
      "country": "Spain",
      "latitude": "36.719648",
      "longitude": "-4.420016",
      "airports": [
        {
          "iata": "AGP",
          "airport_name": "Pablo Ruiz Picasso",
          "latitude": 36.675182,
          "longitude": -4.489616,
          "timezone": "Europe/Madrid"
        }
      ]
    }
  ],
  "Agrinion": [
    {
      "city": "Agrinion",
      "city_code": "AGQ",
      "country": "Greece",
      "latitude": "38.604168",
      "longitude": "21.351944",
      "airports": []
    }
  ],
  "Agra": [
    {
      "city": "Agra",
      "city_code": "AGR",
      "country": "India",
      "latitude": "27.158333",
      "longitude": "77.962776",
      "airports": [
        {
          "iata": "AGR",
          "airport_name": "Kheria",
          "latitude": 27.158333,
          "longitude": 77.962776,
          "timezone": "Asia/Kolkata"
        }
      ]
    }
  ],
  "Augusta": [
    {
      "city": "Augusta",
      "city_code": "AGS",
      "country": "United States",
      "latitude": "33.474246",
      "longitude": "-82.00967",
      "airports": [
        {
          "iata": "AGS",
          "airport_name": "Bush Field",
          "latitude": 33.373665,
          "longitude": -81.973434,
          "timezone": "America/New_York"
        },
        {
          "iata": "DNL",
          "airport_name": "Daniel Field",
          "latitude": 33.466667,
          "longitude": -81.96667,
          "timezone": "America/New_York"
        }
      ]
    },
    {
      "city": "Augusta",
      "city_code": "AUG",
      "country": "United States",
      "latitude": "44.318054",
      "longitude": "-69.79667",
      "airports": [
        {
          "iata": "AUG",
          "airport_name": "Augusta",
          "latitude": 44.318054,
          "longitude": -69.79667,
          "timezone": "America/New_York"
        }
      ]
    }
  ],
  "Ciudad Del Este": [
    {
      "city": "Ciudad Del Este",
      "city_code": "AGT",
      "country": "Paraguay",
      "latitude": "-25.5",
      "longitude": "-54.833332",
      "airports": [
        {
          "iata": "AGT",
          "airport_name": "Alejo Garcia",
          "latitude": -25.5,
          "longitude": -54.833332,
          "timezone": "America/Asuncion"
        }
      ]
    }
  ],
  "Aguascalientes": [
    {
      "city": "Aguascalientes",
      "city_code": "AGU",
      "country": "Mexico",
      "latitude": "21.701416",
      "longitude": "-102.31374",
      "airports": [
        {
          "iata": "AGU",
          "airport_name": "Aguascalients",
          "latitude": 21.701416,
          "longitude": -102.31374,
          "timezone": "America/Mexico_City"
        }
      ]
    }
  ],
  "Acarigua": [
    {
      "city": "Acarigua",
      "city_code": "AGV",
      "country": "Venezuela",
      "latitude": "9.552222",
      "longitude": "-69.23333",
      "airports": [
        {
          "iata": "AGV",
          "airport_name": "Acarigua",
          "latitude": 9.552222,
          "longitude": -69.23333,
          "timezone": "America/Caracas"
        }
      ]
    }
  ],
  "Agnew": [
    {
      "city": "Agnew",
      "city_code": "AGW",
      "country": "Australia",
      "latitude": "-12.15",
      "longitude": "142.15",
      "airports": []
    }
  ],
  "Agatti Island": [
    {
      "city": "Agatti Island",
      "city_code": "AGX",
      "country": "India",
      "latitude": "10.828967",
      "longitude": "72.17987",
      "airports": [
        {
          "iata": "AGX",
          "airport_name": "Agatti Island",
          "latitude": 10.828967,
          "longitude": 72.17987,
          "timezone": "Asia/Kolkata"
        }
      ]
    }
  ],
  "Aggeneys": [
    {
      "city": "Aggeneys",
      "city_code": "AGZ",
      "country": "South Africa",
      "latitude": "-29.05",
      "longitude": "18.85",
      "airports": [
        {
          "iata": "AGZ",
          "airport_name": "Aggeneys",
          "latitude": -29.05,
          "longitude": 18.85,
          "timezone": "Africa/Johannesburg"
        }
      ]
    }
  ],
  "Abha": [
    {
      "city": "Abha",
      "city_code": "AHB",
      "country": "Saudi Arabia",
      "latitude": "18.23429",
      "longitude": "42.657574",
      "airports": [
        {
          "iata": "AHB",
          "airport_name": "Abha",
          "latitude": 18.23429,
          "longitude": 42.657574,
          "timezone": "Asia/Riyadh"
        }
      ]
    }
  ],
  "Herlong": [
    {
      "city": "Herlong",
      "city_code": "AHC",
      "country": "United States",
      "latitude": "40.15",
      "longitude": "-120.13333",
      "airports": []
    }
  ],
  "Ahe": [
    {
      "city": "Ahe",
      "city_code": "AHE",
      "country": "French Polynesia",
      "latitude": "-14.428056",
      "longitude": "-146.25694",
      "airports": [
        {
          "iata": "AHE",
          "airport_name": "Ahe Airport",
          "latitude": -14.428056,
          "longitude": -146.25694,
          "timezone": "Pacific/Tahiti"
        }
      ]
    }
  ],
  "Arapahoe": [
    {
      "city": "Arapahoe",
      "city_code": "AHF",
      "country": "United States",
      "latitude": "40.3",
      "longitude": "-99.9",
      "airports": []
    }
  ],
  "Amery": [
    {
      "city": "Amery",
      "city_code": "AHH",
      "country": "United States",
      "latitude": "45.3",
      "longitude": "-92.35",
      "airports": [
        {
          "iata": "AHH",
          "airport_name": "Municipal",
          "latitude": 45.3,
          "longitude": -92.35,
          "timezone": "America/Chicago"
        }
      ]
    }
  ],
  "Amahai": [
    {
      "city": "Amahai",
      "city_code": "AHI",
      "country": "Indonesia",
      "latitude": "-3.333333",
      "longitude": "128.91667",
      "airports": [
        {
          "iata": "AHI",
          "airport_name": "Amahai",
          "latitude": -3.333333,
          "longitude": 128.91667,
          "timezone": "Asia/Jayapura"
        }
      ]
    }
  ],
  "Aishalton": [
    {
      "city": "Aishalton",
      "city_code": "AHL",
      "country": "Guyana",
      "latitude": "2.483333",
      "longitude": "-59.316666",
      "airports": [
        {
          "iata": "AHL",
          "airport_name": "Aishalton",
          "latitude": 2.483333,
          "longitude": -59.316666,
          "timezone": "America/Guyana"
        }
      ]
    }
  ],
  "Ashland": [
    {
      "city": "Ashland",
      "city_code": "AHM",
      "country": "United States",
      "latitude": null,
      "longitude": null,
      "airports": []
    },
    {
      "city": "Ashland",
      "city_code": "ASX",
      "country": "United States",
      "latitude": "46.55",
      "longitude": "-90.916664",
      "airports": [
        {
          "iata": "ASX",
          "airport_name": "Ashland",
          "latitude": 46.55,
          "longitude": -90.916664,
          "timezone": "America/Chicago"
        }
      ]
    }
  ],
  "Athens": [
    {
      "city": "Athens",
      "city_code": "AHN",
      "country": "United States",
      "latitude": "33.95195",
      "longitude": "-83.32472",
      "airports": [
        {
          "iata": "AHN",
          "airport_name": "Athens-Ben Epps",
          "latitude": 33.95195,
          "longitude": -83.32472,
          "timezone": "America/New_York"
        }
      ]
    },
    {
      "city": "Athens",
      "city_code": "ATH",
      "country": "Greece",
      "latitude": "37.93635",
      "longitude": "23.946486",
      "airports": [
        {
          "iata": "ATH",
          "airport_name": "Athens International Airport \"Eleftherios Venizelos\"",
          "latitude": 37.93635,
          "longitude": 23.946486,
          "timezone": "Europe/Athens"
        }
      ]
    },
    {
      "city": "Athens",
      "city_code": "ATO",
      "country": "United States",
      "latitude": "39.333332",
      "longitude": "-82.1",
      "airports": []
    },
    {
      "city": "Athens",
      "city_code": "MMI",
      "country": "United States",
      "latitude": "35.52303",
      "longitude": "-84.6757",
      "airports": [
        {
          "iata": "MMI",
          "airport_name": "McMinn County",
          "latitude": 35.52303,
          "longitude": -84.6757,
          "timezone": "America/New_York"
        }
      ]
    }
  ],
  "Alghero": [
    {
      "city": "Alghero",
      "city_code": "AHO",
      "country": "Italy",
      "latitude": "40.630405",
      "longitude": "8.295891",
      "airports": [
        {
          "iata": "AHO",
          "airport_name": "Fertilia",
          "latitude": 40.630405,
          "longitude": 8.295891,
          "timezone": "Europe/Rome"
        }
      ]
    }
  ],
  "Ahuas": [
    {
      "city": "Ahuas",
      "city_code": "AHS",
      "country": "Honduras",
      "latitude": "15.441667",
      "longitude": "-84.425",
      "airports": [
        {
          "iata": "AHS",
          "airport_name": "Ahuas",
          "latitude": 15.441667,
          "longitude": -84.425,
          "timezone": "America/Tegucigalpa"
        }
      ]
    }
  ],
  "Amchitka": [
    {
      "city": "Amchitka",
      "city_code": "AHT",
      "country": "United States",
      "latitude": "51.5",
      "longitude": "179",
      "airports": []
    }
  ],
  "Al Hoceima": [
    {
      "city": "Al Hoceima",
      "city_code": "AHU",
      "country": "Morocco",
      "latitude": "35.17972",
      "longitude": "-3.836944",
      "airports": [
        {
          "iata": "AHU",
          "airport_name": "Charif Al Idrissi",
          "latitude": 35.17972,
          "longitude": -3.836944,
          "timezone": "Africa/Casablanca"
        }
      ]
    }
  ],
  "Saih Rawl": [
    {
      "city": "Saih Rawl",
      "city_code": "AHW",
      "country": "Oman",
      "latitude": "31.34292",
      "longitude": "48.74668",
      "airports": []
    }
  ],
  "Ambatolahy": [
    {
      "city": "Ambatolahy",
      "city_code": "AHY",
      "country": "Madagascar",
      "latitude": "-20.016666",
      "longitude": "45.533333",
      "airports": []
    }
  ],
  "Alpe D Huez": [
    {
      "city": "Alpe D Huez",
      "city_code": "AHZ",
      "country": "France",
      "latitude": "45.083332",
      "longitude": "6.083333",
      "airports": [
        {
          "iata": "AHZ",
          "airport_name": "Alpe D Huez",
          "latitude": 45.083332,
          "longitude": 6.083333,
          "timezone": "Europe/Paris"
        }
      ]
    }
  ],
  "Alliance": [
    {
      "city": "Alliance",
      "city_code": "AIA",
      "country": "United States",
      "latitude": "42.051666",
      "longitude": "-102.80666",
      "airports": [
        {
          "iata": "AIA",
          "airport_name": "Alliance",
          "latitude": 42.051666,
          "longitude": -102.80666,
          "timezone": "America/Denver"
        }
      ]
    }
  ],
  "Anita Bay": [
    {
      "city": "Anita Bay",
      "city_code": "AIB",
      "country": "United States",
      "latitude": "56.233334",
      "longitude": "-132.38333",
      "airports": []
    }
  ],
  "Airok": [
    {
      "city": "Airok",
      "city_code": "AIC",
      "country": "Marshall Islands",
      "latitude": "7.5",
      "longitude": "170.83333",
      "airports": []
    }
  ],
  "Anderson": [
    {
      "city": "Anderson",
      "city_code": "AID",
      "country": "United States",
      "latitude": "40.166668",
      "longitude": "-85.683334",
      "airports": [
        {
          "iata": "AID",
          "airport_name": "Municipal",
          "latitude": 40.166668,
          "longitude": -85.683334,
          "timezone": "America/Indiana/Indianapolis"
        }
      ]
    },
    {
      "city": "Anderson",
      "city_code": "AND",
      "country": "United States",
      "latitude": "34.49361",
      "longitude": "-82.71",
      "airports": [
        {
          "iata": "AND",
          "airport_name": "Anderson",
          "latitude": 34.49361,
          "longitude": -82.71,
          "timezone": "America/New_York"
        }
      ]
    }
  ],
  "Aiome": [
    {
      "city": "Aiome",
      "city_code": "AIE",
      "country": "Papua New Guinea",
      "latitude": "-5.166667",
      "longitude": "144.66667",
      "airports": []
    }
  ],
  "Assis": [
    {
      "city": "Assis",
      "city_code": "AIF",
      "country": "Brazil",
      "latitude": "-22.666668",
      "longitude": "-50.416668",
      "airports": [
        {
          "iata": "AIF",
          "airport_name": "Assis",
          "latitude": -22.666668,
          "longitude": -50.416668,
          "timezone": "America/Sao_Paulo"
        }
      ]
    }
  ],
  "Yalinga": [
    {
      "city": "Yalinga",
      "city_code": "AIG",
      "country": "Central African Republic",
      "latitude": "6.516667",
      "longitude": "23.25",
      "airports": [
        {
          "iata": "AIG",
          "airport_name": "Yalinga",
          "latitude": 6.516667,
          "longitude": 23.25,
          "timezone": "Africa/Bangui"
        }
      ]
    }
  ],
  "Aiambak": [
    {
      "city": "Aiambak",
      "city_code": "AIH",
      "country": "Papua New Guinea",
      "latitude": "-7.348611",
      "longitude": "141.26639",
      "airports": []
    }
  ],
  "Alisabieh": [
    {
      "city": "Alisabieh",
      "city_code": "AII",
      "country": "",
      "latitude": "11.15",
      "longitude": "42.716667",
      "airports": [
        {
          "iata": "AII",
          "airport_name": "Alisabieh",
          "latitude": 11.15,
          "longitude": 42.716667,
          "timezone": "Africa/Djibouti"
        }
      ]
    }
  ],
  "Aiken": [
    {
      "city": "Aiken",
      "city_code": "AIK",
      "country": "United States",
      "latitude": "33.566666",
      "longitude": "-81.71667",
      "airports": [
        {
          "iata": "AIK",
          "airport_name": "Municipal",
          "latitude": 33.566666,
          "longitude": -81.71667,
          "timezone": "America/New_York"
        }
      ]
    }
  ],
  "Ailigandi": [
    {
      "city": "Ailigandi",
      "city_code": "AIL",
      "country": "Panama",
      "latitude": "9.25",
      "longitude": "-78.083336",
      "airports": []
    }
  ],
  "Ailuk Island": [
    {
      "city": "Ailuk Island",
      "city_code": "AIM",
      "country": "Marshall Islands",
      "latitude": "10.2",
      "longitude": "169.98334",
      "airports": []
    }
  ],
  "Wainwright": [
    {
      "city": "Wainwright",
      "city_code": "AIN",
      "country": "United States",
      "latitude": "70.63333",
      "longitude": "-160.03334",
      "airports": [
        {
          "iata": "AIN",
          "airport_name": "Wainwright",
          "latitude": 70.63333,
          "longitude": -160.03334,
          "timezone": "America/Anchorage"
        }
      ]
    }
  ],
  "Atlantic": [
    {
      "city": "Atlantic",
      "city_code": "AIO",
      "country": "United States",
      "latitude": "41.4",
      "longitude": "-95.01667",
      "airports": [
        {
          "iata": "AIO",
          "airport_name": "Municipal",
          "latitude": 41.4,
          "longitude": -95.01667,
          "timezone": "America/Chicago"
        }
      ]
    }
  ],
  "Ailinglapalap Island": [
    {
      "city": "Ailinglapalap Island",
      "city_code": "AIP",
      "country": "Marshall Islands",
      "latitude": "7.266667",
      "longitude": "168.81667",
      "airports": []
    }
  ],
  "Aripuana": [
    {
      "city": "Aripuana",
      "city_code": "AIR",
      "country": "Brazil",
      "latitude": "-10.25",
      "longitude": "-59.38333",
      "airports": [
        {
          "iata": "AIR",
          "airport_name": "Aripuana",
          "latitude": -10.25,
          "longitude": -59.38333,
          "timezone": "America/Cuiaba"
        }
      ]
    }
  ],
  "Arorae Island": [
    {
      "city": "Arorae Island",
      "city_code": "AIS",
      "country": "Kiribati",
      "latitude": "-2.65",
      "longitude": "176.83333",
      "airports": [
        {
          "iata": "AIS",
          "airport_name": "Arorae Island",
          "latitude": -2.65,
          "longitude": 176.83333,
          "timezone": "Pacific/Tarawa"
        }
      ]
    }
  ],
  "Aitutaki": [
    {
      "city": "Aitutaki",
      "city_code": "AIT",
      "country": "Cook Islands",
      "latitude": "-18.829443",
      "longitude": "-159.767",
      "airports": [
        {
          "iata": "AIT",
          "airport_name": "Aitutaki",
          "latitude": -18.829443,
          "longitude": -159.767,
          "timezone": "Pacific/Rarotonga"
        }
      ]
    }
  ],
  "Atiu Island": [
    {
      "city": "Atiu Island",
      "city_code": "AIU",
      "country": "Cook Islands",
      "latitude": "-20.033333",
      "longitude": "-158.1",
      "airports": [
        {
          "iata": "AIU",
          "airport_name": "Atiu Island",
          "latitude": -20.033333,
          "longitude": -158.1,
          "timezone": "Pacific/Rarotonga"
        }
      ]
    }
  ],
  "Aliceville": [
    {
      "city": "Aliceville",
      "city_code": "AIV",
      "country": "United States",
      "latitude": "33.13333",
      "longitude": "-88.15",
      "airports": [
        {
          "iata": "AIV",
          "airport_name": "George Downer",
          "latitude": 33.13333,
          "longitude": -88.15,
          "timezone": "America/Chicago"
        }
      ]
    }
  ],
  "Ai-ais": [
    {
      "city": "Ai-ais",
      "city_code": "AIW",
      "country": "Namibia",
      "latitude": "-27.983334",
      "longitude": "17.583332",
      "airports": []
    }
  ],
  "Atlantic City": [
    {
      "city": "Atlantic City",
      "city_code": "AIY",
      "country": "United States",
      "latitude": "39.36",
      "longitude": "-74.45722",
      "airports": [
        {
          "iata": "ACY",
          "airport_name": "Atlantic City International",
          "latitude": 39.450703,
          "longitude": -74.572235,
          "timezone": "America/New_York"
        }
      ]
    }
  ],
  "Kaiser": [
    {
      "city": "Kaiser",
      "city_code": "AIZ",
      "country": "United States",
      "latitude": "38.09833",
      "longitude": "-92.54722",
      "airports": [
        {
          "iata": "AIZ",
          "airport_name": "Lee C Fine Memorial",
          "latitude": 38.09833,
          "longitude": -92.54722,
          "timezone": "America/Chicago"
        }
      ]
    }
  ],
  "Ajaccio": [
    {
      "city": "Ajaccio",
      "city_code": "AJA",
      "country": "France",
      "latitude": "41.91987",
      "longitude": "8.794013",
      "airports": [
        {
          "iata": "AJA",
          "airport_name": "Campo Dell Oro",
          "latitude": 41.91987,
          "longitude": 8.794013,
          "timezone": "Europe/Paris"
        }
      ]
    }
  ],
  "Sakaka Al Jouf": [
    {
      "city": "Sakaka Al Jouf",
      "city_code": "AJF",
      "country": "Saudi Arabia",
      "latitude": "29.788668",
      "longitude": "40.101486",
      "airports": [
        {
          "iata": "AJF",
          "airport_name": "Jouf",
          "latitude": 29.788668,
          "longitude": 40.101486,
          "timezone": "Asia/Riyadh"
        }
      ]
    }
  ],
  "Agri": [
    {
      "city": "Agri",
      "city_code": "AJI",
      "country": "Turkey",
      "latitude": "39.65",
      "longitude": "43.025",
      "airports": [
        {
          "iata": "AJI",
          "airport_name": "Agri",
          "latitude": 39.65,
          "longitude": 43.025,
          "timezone": "Europe/Istanbul"
        }
      ]
    }
  ],
  "Akjoujt": [
    {
      "city": "Akjoujt",
      "city_code": "AJJ",
      "country": "Mauritania",
      "latitude": "19.730556",
      "longitude": "-14.374444",
      "airports": [
        {
          "iata": "AJJ",
          "airport_name": "Akjoujt",
          "latitude": 19.730556,
          "longitude": -14.374444,
          "timezone": "Africa/Nouakchott"
        }
      ]
    }
  ],
  "Araak": [
    {
      "city": "Araak",
      "city_code": "AJK",
      "country": "Iran",
      "latitude": "34.13333",
      "longitude": "49.833332",
      "airports": [
        {
          "iata": "AJK",
          "airport_name": "Araak",
          "latitude": 34.13333,
          "longitude": 49.833332,
          "timezone": "Asia/Tehran"
        }
      ]
    }
  ],
  "Aizawl": [
    {
      "city": "Aizawl",
      "city_code": "AJL",
      "country": "India",
      "latitude": "23.838985",
      "longitude": "92.62482",
      "airports": [
        {
          "iata": "AJL",
          "airport_name": "Aizawl",
          "latitude": 23.838985,
          "longitude": 92.62482,
          "timezone": "Asia/Kolkata"
        }
      ]
    }
  ],
  "Anjouan": [
    {
      "city": "Anjouan",
      "city_code": "AJN",
      "country": "Comoros",
      "latitude": "-12.126389",
      "longitude": "44.42972",
      "airports": [
        {
          "iata": "AJN",
          "airport_name": "Ouani",
          "latitude": -12.126389,
          "longitude": 44.42972,
          "timezone": "Indian/Comoro"
        }
      ]
    }
  ],
  "Arvidsjaur": [
    {
      "city": "Arvidsjaur",
      "city_code": "AJR",
      "country": "Sweden",
      "latitude": "65.59139",
      "longitude": "19.285557",
      "airports": [
        {
          "iata": "AJR",
          "airport_name": "Arvidsjaur",
          "latitude": 65.59139,
          "longitude": 19.285557,
          "timezone": "Europe/Stockholm"
        }
      ]
    }
  ],
  "Abreojos": [
    {
      "city": "Abreojos",
      "city_code": "AJS",
      "country": "Mexico",
      "latitude": "26.833332",
      "longitude": "-113.666664",
      "airports": []
    }
  ],
  "Aracaju": [
    {
      "city": "Aracaju",
      "city_code": "AJU",
      "country": "Brazil",
      "latitude": "-10.987206",
      "longitude": "-37.072792",
      "airports": [
        {
          "iata": "AJU",
          "airport_name": "Santa Maria",
          "latitude": -10.987206,
          "longitude": -37.072792,
          "timezone": "America/Maceio"
        }
      ]
    }
  ],
  "Agades": [
    {
      "city": "Agades",
      "city_code": "AJY",
      "country": "Niger",
      "latitude": "16.964167",
      "longitude": "7.993056",
      "airports": [
        {
          "iata": "AJY",
          "airport_name": "Agades",
          "latitude": 16.964167,
          "longitude": 7.993056,
          "timezone": "Africa/Niamey"
        }
      ]
    }
  ],
  "Ankang": [
    {
      "city": "Ankang",
      "city_code": "AKA",
      "country": "Beijing",
      "latitude": "32.7091",
      "longitude": "108.936",
      "airports": [
        {
          "iata": "AKA",
          "airport_name": "Ankang",
          "latitude": 32.7091,
          "longitude": 108.936,
          "timezone": "Asia/Shanghai"
        }
      ]
    }
  ],
  "Atka": [
    {
      "city": "Atka",
      "city_code": "AKB",
      "country": "United States",
      "latitude": "52.21722",
      "longitude": "-174.20084",
      "airports": [
        {
          "iata": "AKB",
          "airport_name": "Atka",
          "latitude": 52.21722,
          "longitude": -174.20084,
          "timezone": "America/Adak"
        }
      ]
    }
  ],
  "Akola": [
    {
      "city": "Akola",
      "city_code": "AKD",
      "country": "India",
      "latitude": "20.666668",
      "longitude": "77.083336",
      "airports": [
        {
          "iata": "AKD",
          "airport_name": "Akola",
          "latitude": 20.666668,
          "longitude": 77.083336,
          "timezone": "Asia/Kolkata"
        }
      ]
    }
  ],
  "Akieni": [
    {
      "city": "Akieni",
      "city_code": "AKE",
      "country": "Gabon",
      "latitude": "-1.172222",
      "longitude": "13.916667",
      "airports": []
    }
  ],
  "Kufrah": [
    {
      "city": "Kufrah",
      "city_code": "AKF",
      "country": "Libya",
      "latitude": "24.2",
      "longitude": "23.333332",
      "airports": [
        {
          "iata": "AKF",
          "airport_name": "Kufrah",
          "latitude": 24.2,
          "longitude": 23.333332,
          "timezone": "Africa/Tripoli"
        }
      ]
    }
  ],
  "Anguganak": [
    {
      "city": "Anguganak",
      "city_code": "AKG",
      "country": "Papua New Guinea",
      "latitude": "-3.633333",
      "longitude": "142.01666",
      "airports": []
    }
  ],
  "Al Kharj": [
    {
      "city": "Al Kharj",
      "city_code": "AKH",
      "country": "Saudi Arabia",
      "latitude": "24.063334",
      "longitude": "47.580555",
      "airports": [
        {
          "iata": "AKH",
          "airport_name": "Prince Sultan Air Base",
          "latitude": 24.063334,
          "longitude": 47.580555,
          "timezone": "Asia/Riyadh"
        }
      ]
    }
  ],
  "Akiak": [
    {
      "city": "Akiak",
      "city_code": "AKI",
      "country": "United States",
      "latitude": "60.905556",
      "longitude": "-161.22333",
      "airports": [
        {
          "iata": "AKI",
          "airport_name": "Akiak",
          "latitude": 60.905556,
          "longitude": -161.22333,
          "timezone": "America/Anchorage"
        }
      ]
    }
  ],
  "Asahikawa": [
    {
      "city": "Asahikawa",
      "city_code": "AKJ",
      "country": "Japan",
      "latitude": "43.67109",
      "longitude": "142.45454",
      "airports": [
        {
          "iata": "AKJ",
          "airport_name": "Asahikawa",
          "latitude": 43.67109,
          "longitude": 142.45454,
          "timezone": "Asia/Tokyo"
        }
      ]
    }
  ],
  "Akhiok": [
    {
      "city": "Akhiok",
      "city_code": "AKK",
      "country": "United States",
      "latitude": "56.944443",
      "longitude": "-154.16667",
      "airports": [
        {
          "iata": "AKK",
          "airport_name": "Akhiok SPB",
          "latitude": 56.944443,
          "longitude": -154.16667,
          "timezone": "America/Anchorage"
        }
      ]
    }
  ],
  "Auckland": [
    {
      "city": "Auckland",
      "city_code": "AKL",
      "country": "New Zealand",
      "latitude": "-36.84846",
      "longitude": "174.763331",
      "airports": [
        {
          "iata": "AKL",
          "airport_name": "Auckland International",
          "latitude": -37.004787,
          "longitude": 174.78352,
          "timezone": "Pacific/Auckland"
        }
      ]
    }
  ],
  "Zakouma": [
    {
      "city": "Zakouma",
      "city_code": "AKM",
      "country": "",
      "latitude": "10.883333",
      "longitude": "19.816668",
      "airports": []
    }
  ],
  "King Salmon": [
    {
      "city": "King Salmon",
      "city_code": "AKN",
      "country": "United States",
      "latitude": "58.68274",
      "longitude": "-156.66902",
      "airports": [
        {
          "iata": "AKN",
          "airport_name": "King Salmon",
          "latitude": 58.68274,
          "longitude": -156.66902,
          "timezone": "America/Anchorage"
        }
      ]
    }
  ],
  "Akron": [
    {
      "city": "Akron",
      "city_code": "AKO",
      "country": "United States",
      "latitude": "40.166668",
      "longitude": "-103.21667",
      "airports": [
        {
          "iata": "AKO",
          "airport_name": "Colorado Plains Regional Airport",
          "latitude": 40.166668,
          "longitude": -103.21667,
          "timezone": "America/Denver"
        }
      ]
    }
  ],
  "Anaktuvuk": [
    {
      "city": "Anaktuvuk",
      "city_code": "AKP",
      "country": "United States",
      "latitude": "68.1375",
      "longitude": "-151.74",
      "airports": [
        {
          "iata": "AKP",
          "airport_name": "Anaktuvuk",
          "latitude": 68.1375,
          "longitude": -151.74,
          "timezone": "America/Anchorage"
        }
      ]
    }
  ],
  "Astraksetra": [
    {
      "city": "Astraksetra",
      "city_code": "AKQ",
      "country": "Indonesia",
      "latitude": "-4.616667",
      "longitude": "105.23333",
      "airports": []
    }
  ],
  "Akure": [
    {
      "city": "Akure",
      "city_code": "AKR",
      "country": "Nigeria",
      "latitude": "7.25",
      "longitude": "5.083333",
      "airports": [
        {
          "iata": "AKR",
          "airport_name": "Akure",
          "latitude": 7.25,
          "longitude": 5.083333,
          "timezone": "Africa/Lagos"
        }
      ]
    }
  ],
  "Auki": [
    {
      "city": "Auki",
      "city_code": "AKS",
      "country": "Solomon Islands",
      "latitude": "-8.697778",
      "longitude": "160.68083",
      "airports": [
        {
          "iata": "AKS",
          "airport_name": "Gwaunaru'u",
          "latitude": -8.697778,
          "longitude": 160.68083,
          "timezone": "Pacific/Guadalcanal"
        }
      ]
    }
  ],
  "Akrotiri": [
    {
      "city": "Akrotiri",
      "city_code": "AKT",
      "country": "Cyprus",
      "latitude": "34.583332",
      "longitude": "32.983334",
      "airports": [
        {
          "iata": "AKT",
          "airport_name": "Raf Akrotiri",
          "latitude": 34.583332,
          "longitude": 32.983334,
          "timezone": "Asia/Nicosia"
        }
      ]
    }
  ],
  "Aksu": [
    {
      "city": "Aksu",
      "city_code": "AKU",
      "country": "Beijing",
      "latitude": "41.259983",
      "longitude": "80.29262",
      "airports": [
        {
          "iata": "AKU",
          "airport_name": "Aksu",
          "latitude": 41.259983,
          "longitude": 80.29262,
          "timezone": "Asia/Shanghai"
        }
      ]
    }
  ],
  "Akulivik": [
    {
      "city": "Akulivik",
      "city_code": "AKV",
      "country": "Canada",
      "latitude": "60.733334",
      "longitude": "-78.583336",
      "airports": [
        {
          "iata": "AKV",
          "airport_name": "Akulivik",
          "latitude": 60.733334,
          "longitude": -78.583336,
          "timezone": "America/Montreal"
        }
      ]
    }
  ],
  "Aghajari": [
    {
      "city": "Aghajari",
      "city_code": "AKW",
      "country": "Iran",
      "latitude": "30.75",
      "longitude": "49.683334",
      "airports": []
    }
  ],
  "Aktyubinsk": [
    {
      "city": "Aktyubinsk",
      "city_code": "AKX",
      "country": "Kazakhstan",
      "latitude": "50.249336",
      "longitude": "57.211403",
      "airports": [
        {
          "iata": "AKX",
          "airport_name": "Aktyubinsk",
          "latitude": 50.249336,
          "longitude": 57.211403,
          "timezone": "Asia/Aqtobe"
        }
      ]
    }
  ],
  "Sittwe": [
    {
      "city": "Sittwe",
      "city_code": "AKY",
      "country": "",
      "latitude": "20.130278",
      "longitude": "92.88028",
      "airports": [
        {
          "iata": "AKY",
          "airport_name": "Civil",
          "latitude": 20.130278,
          "longitude": 92.88028,
          "timezone": "Asia/Rangoon"
        }
      ]
    }
  ],
  "Almaty": [
    {
      "city": "Almaty",
      "city_code": "ALA",
      "country": "Kazakhstan",
      "latitude": "43.255058",
      "longitude": "76.912628",
      "airports": [
        {
          "iata": "ALA",
          "airport_name": "Almaty",
          "latitude": 43.346653,
          "longitude": 77.01145,
          "timezone": "Asia/Almaty"
        },
        {
          "iata": "BXJ",
          "airport_name": "Burundai",
          "latitude": 43.5,
          "longitude": 76.95,
          "timezone": "Asia/Almaty"
        }
      ]
    }
  ],
  "Alicante": [
    {
      "city": "Alicante",
      "city_code": "ALC",
      "country": "Spain",
      "latitude": "38.34521",
      "longitude": "-0.480994",
      "airports": [
        {
          "iata": "ALC",
          "airport_name": "Alicante El Altet",
          "latitude": 38.287098,
          "longitude": -0.557381,
          "timezone": "Europe/Madrid"
        }
      ]
    }
  ],
  "Alerta": [
    {
      "city": "Alerta",
      "city_code": "ALD",
      "country": "Peru",
      "latitude": "-11.683333",
      "longitude": "-69.333336",
      "airports": [
        {
          "iata": "ALD",
          "airport_name": "Alerta",
          "latitude": -11.683333,
          "longitude": -69.333336,
          "timezone": "America/Lima"
        }
      ]
    }
  ],
  "Alpine": [
    {
      "city": "Alpine",
      "city_code": "ALE",
      "country": "United States",
      "latitude": "30.416668",
      "longitude": "-103.75",
      "airports": [
        {
          "iata": "ALE",
          "airport_name": "Alpine",
          "latitude": 30.416668,
          "longitude": -103.75,
          "timezone": "America/Chicago"
        }
      ]
    }
  ],
  "Alta": [
    {
      "city": "Alta",
      "city_code": "ALF",
      "country": "Norway",
      "latitude": "69.977165",
      "longitude": "23.355808",
      "airports": [
        {
          "iata": "ALF",
          "airport_name": "Alta",
          "latitude": 69.977165,
          "longitude": 23.355808,
          "timezone": "Europe/Oslo"
        }
      ]
    }
  ],
  "Algiers": [
    {
      "city": "Algiers",
      "city_code": "ALG",
      "country": "",
      "latitude": "36.70058",
      "longitude": "3.21167",
      "airports": [
        {
          "iata": "ALG",
          "airport_name": "Houari Boumediene",
          "latitude": 36.70058,
          "longitude": 3.21167,
          "timezone": "Africa/Algiers"
        }
      ]
    }
  ],
  "Alice": [
    {
      "city": "Alice",
      "city_code": "ALI",
      "country": "United States",
      "latitude": "27.75",
      "longitude": "-98.066666",
      "airports": [
        {
          "iata": "ALI",
          "airport_name": "Alice International Airport",
          "latitude": 27.75,
          "longitude": -98.066666,
          "timezone": "America/Chicago"
        }
      ]
    }
  ],
  "Alexander Bay": [
    {
      "city": "Alexander Bay",
      "city_code": "ALJ",
      "country": "South Africa",
      "latitude": "-28.567223",
      "longitude": "16.536388",
      "airports": [
        {
          "iata": "ALJ",
          "airport_name": "Kortdoorn",
          "latitude": -28.567223,
          "longitude": 16.536388,
          "timezone": "Africa/Johannesburg"
        }
      ]
    }
  ],
  "Asela": [
    {
      "city": "Asela",
      "city_code": "ALK",
      "country": "Ethiopia",
      "latitude": "7.966667",
      "longitude": "39.11667",
      "airports": []
    }
  ],
  "Albenga": [
    {
      "city": "Albenga",
      "city_code": "ALL",
      "country": "Italy",
      "latitude": "44.05",
      "longitude": "8.216667",
      "airports": [
        {
          "iata": "ALL",
          "airport_name": "Albenga",
          "latitude": 44.05,
          "longitude": 8.216667,
          "timezone": "Europe/Rome"
        }
      ]
    }
  ],
  "Alamogordo": [
    {
      "city": "Alamogordo",
      "city_code": "ALM",
      "country": "United States",
      "latitude": "32.899532",
      "longitude": "-105.960265",
      "airports": [
        {
          "iata": "ALM",
          "airport_name": "Municipal",
          "latitude": 32.845833,
          "longitude": -105.985275,
          "timezone": "America/Denver"
        }
      ]
    }
  ],
  "Alton": [
    {
      "city": "Alton",
      "city_code": "ALN",
      "country": "United States",
      "latitude": "38.891666",
      "longitude": "-90.04833",
      "airports": [
        {
          "iata": "ALN",
          "airport_name": "Alton",
          "latitude": 38.891666,
          "longitude": -90.04833,
          "timezone": "America/Chicago"
        }
      ]
    }
  ],
  "Waterloo": [
    {
      "city": "Waterloo",
      "city_code": "ALO",
      "country": "United States",
      "latitude": "42.55611",
      "longitude": "-92.39972",
      "airports": [
        {
          "iata": "ALO",
          "airport_name": "Waterloo",
          "latitude": 42.55611,
          "longitude": -92.39972,
          "timezone": "America/Chicago"
        }
      ]
    },
    {
      "city": "Waterloo",
      "city_code": "WLO",
      "country": "Australia",
      "latitude": "-16.633333",
      "longitude": "129.31667",
      "airports": [
        {
          "iata": "WLO",
          "airport_name": "Waterloo",
          "latitude": -16.633333,
          "longitude": 129.31667,
          "timezone": "Australia/Darwin"
        }
      ]
    }
  ],
  "Aleppo": [
    {
      "city": "Aleppo",
      "city_code": "ALP",
      "country": "Syria",
      "latitude": "36.185352",
      "longitude": "37.227074",
      "airports": [
        {
          "iata": "ALP",
          "airport_name": "Nejrab",
          "latitude": 36.185352,
          "longitude": 37.227074,
          "timezone": "Asia/Damascus"
        }
      ]
    }
  ],
  "Alegrete": [
    {
      "city": "Alegrete",
      "city_code": "ALQ",
      "country": "Brazil",
      "latitude": "-29.799723",
      "longitude": "-55.763332",
      "airports": [
        {
          "iata": "ALQ",
          "airport_name": "Federal",
          "latitude": -29.799723,
          "longitude": -55.763332,
          "timezone": "America/Sao_Paulo"
        }
      ]
    }
  ],
  "Alexandra": [
    {
      "city": "Alexandra",
      "city_code": "ALR",
      "country": "New Zealand",
      "latitude": "-45.21389",
      "longitude": "169.36945",
      "airports": [
        {
          "iata": "ALR",
          "airport_name": "Alexandra",
          "latitude": -45.21389,
          "longitude": 169.36945,
          "timezone": "Pacific/Auckland"
        }
      ]
    }
  ],
  "Alamosa": [
    {
      "city": "Alamosa",
      "city_code": "ALS",
      "country": "United States",
      "latitude": "37.43667",
      "longitude": "-105.86667",
      "airports": [
        {
          "iata": "ALS",
          "airport_name": "Municipal",
          "latitude": 37.43667,
          "longitude": -105.86667,
          "timezone": "America/Denver"
        }
      ]
    }
  ],
  "Alenquer": [
    {
      "city": "Alenquer",
      "city_code": "ALT",
      "country": "Brazil",
      "latitude": "-1.933333",
      "longitude": "-54.766666",
      "airports": []
    }
  ],
  "Alula": [
    {
      "city": "Alula",
      "city_code": "ALU",
      "country": "Somalia",
      "latitude": "11.966667",
      "longitude": "50.8",
      "airports": [
        {
          "iata": "ALU",
          "airport_name": "Alula",
          "latitude": 11.966667,
          "longitude": 50.8,
          "timezone": "Africa/Mogadishu"
        }
      ]
    }
  ],
  "Walla Walla": [
    {
      "city": "Walla Walla",
      "city_code": "ALW",
      "country": "United States",
      "latitude": "46.094723",
      "longitude": "-118.291115",
      "airports": [
        {
          "iata": "ALW",
          "airport_name": "Walla Walla",
          "latitude": 46.094723,
          "longitude": -118.291115,
          "timezone": "America/Los_Angeles"
        }
      ]
    }
  ],
  "Alexander City": [
    {
      "city": "Alexander City",
      "city_code": "ALX",
      "country": "United States",
      "latitude": "32.933334",
      "longitude": "-85.95",
      "airports": [
        {
          "iata": "ALX",
          "airport_name": "Thomas C Russell Field",
          "latitude": 32.933334,
          "longitude": -85.95,
          "timezone": "America/Chicago"
        }
      ]
    }
  ],
  "Alitak": [
    {
      "city": "Alitak",
      "city_code": "ALZ",
      "country": "United States",
      "latitude": "56.895832",
      "longitude": "-154.24583",
      "airports": []
    }
  ],
  "Amarillo": [
    {
      "city": "Amarillo",
      "city_code": "AMA",
      "country": "United States",
      "latitude": "35.221997",
      "longitude": "-101.831297",
      "airports": [
        {
          "iata": "AMA",
          "airport_name": "Rick Husband Amarillo International",
          "latitude": 35.218273,
          "longitude": -101.70513,
          "timezone": "America/Chicago"
        },
        {
          "iata": "TDW",
          "airport_name": "Tradewind",
          "latitude": 35.216667,
          "longitude": -101.833336,
          "timezone": "America/Chicago"
        }
      ]
    }
  ],
  "Ambilobe": [
    {
      "city": "Ambilobe",
      "city_code": "AMB",
      "country": "Madagascar",
      "latitude": "-13.183333",
      "longitude": "48.983334",
      "airports": []
    }
  ],
  "Am Timan": [
    {
      "city": "Am Timan",
      "city_code": "AMC",
      "country": "",
      "latitude": "11.033333",
      "longitude": "20.283333",
      "airports": [
        {
          "iata": "AMC",
          "airport_name": "Am Timan",
          "latitude": 11.033333,
          "longitude": 20.283333,
          "timezone": "Africa/Ndjamena"
        }
      ]
    }
  ],
  "Ahmedabad": [
    {
      "city": "Ahmedabad",
      "city_code": "AMD",
      "country": "India",
      "latitude": "23.06639",
      "longitude": "72.62417",
      "airports": [
        {
          "iata": "AMD",
          "airport_name": "Sardar Vallabhbhai Patel International Airport",
          "latitude": 23.06639,
          "longitude": 72.62417,
          "timezone": "Asia/Kolkata"
        }
      ]
    }
  ],
  "Alto Molocue": [
    {
      "city": "Alto Molocue",
      "city_code": "AME",
      "country": "Mozambique",
      "latitude": "-15.833333",
      "longitude": "37.583332",
      "airports": []
    }
  ],
  "Ama": [
    {
      "city": "Ama",
      "city_code": "AMF",
      "country": "Papua New Guinea",
      "latitude": "-4.166667",
      "longitude": "141.66667",
      "airports": []
    }
  ],
  "Amboin": [
    {
      "city": "Amboin",
      "city_code": "AMG",
      "country": "Papua New Guinea",
      "latitude": "-4.616667",
      "longitude": "143.7",
      "airports": []
    }
  ],
  "Arba Mintch": [
    {
      "city": "Arba Mintch",
      "city_code": "AMH",
      "country": "Ethiopia",
      "latitude": "6.036111",
      "longitude": "37.576942",
      "airports": [
        {
          "iata": "AMH",
          "airport_name": "Arba Mintch",
          "latitude": 6.036111,
          "longitude": 37.576942,
          "timezone": "Africa/Addis_Ababa"
        }
      ]
    }
  ],
  "Mataram": [
    {
      "city": "Mataram",
      "city_code": "AMI",
      "country": "Indonesia",
      "latitude": "-8.563165",
      "longitude": "116.10237",
      "airports": []
    }
  ],
  "Almenara": [
    {
      "city": "Almenara",
      "city_code": "AMJ",
      "country": "Brazil",
      "latitude": "-16.183332",
      "longitude": "-40.683334",
      "airports": [
        {
          "iata": "AMJ",
          "airport_name": "Almenara",
          "latitude": -16.183332,
          "longitude": -40.683334,
          "timezone": "America/Sao_Paulo"
        }
      ]
    }
  ],
  "Puerto Armuellas": [
    {
      "city": "Puerto Armuellas",
      "city_code": "AML",
      "country": "Panama",
      "latitude": "8.266667",
      "longitude": "-82.86667",
      "airports": []
    }
  ],
  "Amman": [
    {
      "city": "Amman",
      "city_code": "AMM",
      "country": "Jordan",
      "latitude": "31.722534",
      "longitude": "35.98932",
      "airports": [
        {
          "iata": "ADJ",
          "airport_name": "Marka International Airport",
          "latitude": 31.97533,
          "longitude": 35.98277,
          "timezone": "Asia/Amman"
        },
        {
          "iata": "AMM",
          "airport_name": "Queen Alia International",
          "latitude": 31.722534,
          "longitude": 35.98932,
          "timezone": "Asia/Amman"
        }
      ]
    }
  ],
  "Alma": [
    {
      "city": "Alma",
      "city_code": "AMN",
      "country": "United States",
      "latitude": "43.38333",
      "longitude": "-84.65",
      "airports": [
        {
          "iata": "AMN",
          "airport_name": "Gratiot Community",
          "latitude": 43.38333,
          "longitude": -84.65,
          "timezone": "America/Detroit"
        }
      ]
    },